{
  "Entries": [
    {
      "RequestUri": "https://management.azure.com/subscriptions/00000000-0000-0000-0000-000000000000/resourcegroups/Sanitized?api-version=2021-04-01",
      "RequestMethod": "PUT",
      "RequestHeaders": {
        "Accept": "application/json",
        "Accept-Encoding": "gzip",
        "Authorization": "Sanitized",
        "Content-Length": "21",
        "Content-Type": "application/json",
        "User-Agent": "azsdk-go-armresources/v1.0.0 (go1.19; Windows_NT)"
      },
      "RequestBody": {
        "location": "westus"
      },
      "StatusCode": 201,
      "ResponseHeaders": {
        "Cache-Control": "no-cache",
        "Content-Length": "225",
        "Content-Type": "application/json; charset=utf-8",
        "Date": "Wed, 10 May 2023 03:04:16 GMT",
        "Expires": "-1",
        "Pragma": "no-cache",
        "Strict-Transport-Security": "max-age=31536000; includeSubDomains",
        "X-Content-Type-Options": "nosniff",
        "x-ms-correlation-request-id": "00000000-0000-0000-0000-000000000000",
        "x-ms-ratelimit-remaining-subscription-writes": "1188",
        "x-ms-request-id": "00000000-0000-0000-0000-000000000000",
        "x-ms-routing-request-id": "SOUTHEASTASIA:20230510T030416Z:00000000-0000-0000-0000-000000000000"
      },
      "ResponseBody": {
        "id": "/subscriptions/00000000-0000-0000-0000-000000000000/resourceGroups/Sanitized",
        "name": "Sanitized",
        "type": "Microsoft.Resources/resourceGroups",
        "location": "westus",
        "properties": {
          "provisioningState": "Succeeded"
        }
      }
    },
    {
      "RequestUri": "https://management.azure.com/subscriptions/00000000-0000-0000-0000-000000000000/resourceGroups/Sanitized/providers/Microsoft.Logic/integrationAccounts/integratgsmLxJ?api-version=2019-05-01",
      "RequestMethod": "PUT",
      "RequestHeaders": {
        "Accept": "application/json",
        "Accept-Encoding": "gzip",
        "Authorization": "Sanitized",
        "Content-Length": "63",
        "Content-Type": "application/json",
        "User-Agent": "azsdk-go-armlogic/v1.1.1 (go1.19; Windows_NT)"
      },
      "RequestBody": {
        "location": "westus",
        "properties": {},
        "sku": {
          "name": "Standard"
        }
      },
      "StatusCode": 201,
      "ResponseHeaders": {
        "Cache-Control": "no-cache",
        "Content-Length": "299",
        "Content-Type": "application/json; charset=utf-8",
        "Date": "Wed, 10 May 2023 03:04:19 GMT",
        "Expires": "-1",
        "Pragma": "no-cache",
        "Strict-Transport-Security": "max-age=31536000; includeSubDomains",
        "X-Content-Type-Options": "nosniff",
        "x-ms-correlation-request-id": "00000000-0000-0000-0000-000000000000",
        "x-ms-ratelimit-remaining-subscription-writes": "1187",
        "x-ms-request-id": "westus:00000000-0000-0000-0000-000000000000",
        "x-ms-routing-request-id": "SOUTHEASTASIA:20230510T030419Z:00000000-0000-0000-0000-000000000000"
      },
      "ResponseBody": {
        "properties": {
          "state": "Enabled"
        },
        "sku": {
          "name": "Standard"
        },
        "id": "/subscriptions/00000000-0000-0000-0000-000000000000/resourceGroups/Sanitized/providers/Microsoft.Logic/integrationAccounts/integratgsmLxJ",
        "name": "integratgsmLxJ",
        "type": "Microsoft.Logic/integrationAccounts",
        "location": "westus"
      }
    },
    {
      "RequestUri": "https://management.azure.com/subscriptions/00000000-0000-0000-0000-000000000000/resourceGroups/Sanitized/providers/Microsoft.Logic/workflows/workflowaS2LrK?api-version=2019-05-01",
      "RequestMethod": "PUT",
      "RequestHeaders": {
        "Accept": "application/json",
        "Accept-Encoding": "gzip",
        "Authorization": "Sanitized",
        "Content-Length": "773",
        "Content-Type": "application/json",
        "User-Agent": "azsdk-go-armlogic/v1.1.1 (go1.19; Windows_NT)"
      },
      "RequestBody": {
        "location": "westus",
        "properties": {
          "definition": {
            "$schema": "https://schema.management.azure.com/providers/Microsoft.Logic/schemas/2016-06-01/workflowdefinition.json#",
            "actions": {
              "Find_pet_by_ID": {
                "inputs": {
                  "host": {
                    "connection": {
                      "name": "@parameters(\u0027$connections\u0027)[\u0027test-custom-connector\u0027][\u0027connectionId\u0027]"
                    }
                  },
                  "method": "get",
                  "path": "/pet/@{encodeURIComponent(\u00271\u0027)}"
                },
                "runAfter": {},
                "type": "ApiConnection"
              }
            },
            "contentVersion": "1.0.0.0",
            "outputs": {},
            "parameters": {
              "$connections": {
                "defaultValue": {},
                "type": "Object"
              }
            },
            "triggers": {
              "manual": {
                "inputs": {
                  "schema": {}
                },
                "kind": "Http",
                "type": "Request"
              }
            }
          },
          "integrationAccount": {
            "id": "/subscriptions/00000000-0000-0000-0000-000000000000/resourceGroups/Sanitized/providers/Microsoft.Logic/integrationAccounts/integratgsmLxJ"
          }
        },
        "tags": {}
      },
      "StatusCode": 201,
      "ResponseHeaders": {
        "Cache-Control": "no-cache",
        "Content-Length": "2742",
        "Content-Type": "application/json; charset=utf-8",
        "Date": "Wed, 10 May 2023 03:04:22 GMT",
        "Expires": "-1",
        "Pragma": "no-cache",
        "Strict-Transport-Security": "max-age=31536000; includeSubDomains",
        "X-Content-Type-Options": "nosniff",
        "x-ms-correlation-request-id": "00000000-0000-0000-0000-000000000000",
        "x-ms-ratelimit-remaining-subscription-writes": "1186",
        "x-ms-request-id": "westus:00000000-0000-0000-0000-000000000000",
        "x-ms-routing-request-id": "SOUTHEASTASIA:20230510T030422Z:00000000-0000-0000-0000-000000000000"
      },
      "ResponseBody": {
        "properties": {
          "provisioningState": "Succeeded",
          "createdTime": "2023-05-10T03:04:21.3349933Z",
          "changedTime": "2023-05-10T03:04:21.3220893Z",
          "state": "Enabled",
          "version": "08585179190242126358",
          "accessEndpoint": "https://prod-115.westus.logic.azure.com:443/workflows/e62c7b3559564b3b9e893e33a2683af9",
          "integrationAccount": {
            "name": "integratgsmLxJ",
            "id": "/subscriptions/00000000-0000-0000-0000-000000000000/resourceGroups/Sanitized/providers/Microsoft.Logic/integrationAccounts/integratgsmLxJ",
            "type": "Microsoft.Logic/integrationAccounts"
          },
          "definition": {
            "$schema": "https://schema.management.azure.com/providers/Microsoft.Logic/schemas/2016-06-01/workflowdefinition.json#",
            "contentVersion": "1.0.0.0",
            "parameters": {
              "$connections": {
                "defaultValue": {},
                "type": "Object"
              }
            },
            "triggers": {
              "manual": {
                "type": "Request",
                "kind": "Http",
                "inputs": {
                  "schema": {}
                }
              }
            },
            "actions": {
              "Find_pet_by_ID": {
                "runAfter": {},
                "type": "ApiConnection",
                "inputs": {
                  "host": {
                    "connection": {
                      "name": "@parameters(\u0027$connections\u0027)[\u0027test-custom-connector\u0027][\u0027connectionId\u0027]"
                    }
                  },
                  "method": "get",
                  "path": "/pet/@{encodeURIComponent(\u00271\u0027)}"
                }
              }
            },
            "outputs": {}
          },
          "parameters": {},
          "endpointsConfiguration": {
            "workflow": {
              "outgoingIpAddresses": [
                {
                  "address": "52.160.92.112"
                },
                {
                  "address": "40.118.244.241"
                },
                {
                  "address": "40.118.241.243"
                },
                {
                  "address": "157.56.162.53"
                },
                {
                  "address": "157.56.167.147"
                },
                {
                  "address": "104.42.49.145"
                },
                {
                  "address": "40.83.164.80"
                },
                {
                  "address": "104.42.38.32"
                },
                {
                  "address": "13.86.223.0"
                },
                {
                  "address": "13.86.223.1"
                },
                {
                  "address": "13.86.223.2"
                },
                {
                  "address": "13.86.223.3"
                },
                {
                  "address": "13.86.223.4"
                },
                {
                  "address": "13.86.223.5"
                },
                {
                  "address": "104.40.34.169"
                },
                {
                  "address": "104.40.32.148"
                },
                {
                  "address": "52.160.70.221"
                },
                {
                  "address": "52.160.70.105"
                },
                {
                  "address": "13.91.81.221"
                },
                {
                  "address": "13.64.231.196"
                },
                {
                  "address": "13.87.204.182"
                },
                {
                  "address": "40.78.65.193"
                },
                {
                  "address": "13.87.207.39"
                },
                {
                  "address": "104.42.44.28"
                },
                {
                  "address": "40.83.134.97"
                },
                {
                  "address": "40.78.65.112"
                },
                {
                  "address": "168.62.9.74"
                },
                {
                  "address": "168.62.28.191"
                }
              ],
              "accessEndpointIpAddresses": [
                {
                  "address": "52.160.90.237"
                },
                {
                  "address": "138.91.188.137"
                },
                {
                  "address": "13.91.252.184"
                },
                {
                  "address": "157.56.160.212"
                },
                {
                  "address": "104.40.34.112"
                },
                {
                  "address": "52.160.68.27"
                },
                {
                  "address": "13.88.168.158"
                },
                {
                  "address": "104.42.40.164"
                },
                {
                  "address": "13.87.207.79"
                },
                {
                  "address": "13.87.204.210"
                },
                {
                  "address": "168.62.9.100"
                }
              ]
            },
            "connector": {
              "outgoingIpAddresses": [
                {
                  "address": "13.93.148.62"
                },
                {
                  "address": "104.42.122.49"
                },
                {
                  "address": "40.112.195.87"
                },
                {
                  "address": "13.86.223.32/27"
                },
                {
                  "address": "40.112.243.160/28"
                },
                {
                  "address": "20.59.77.0/27"
                },
                {
                  "address": "20.66.6.112/28"
                }
              ]
            }
          }
        },
        "id": "/subscriptions/00000000-0000-0000-0000-000000000000/resourceGroups/Sanitized/providers/Microsoft.Logic/workflows/workflowaS2LrK",
        "name": "workflowaS2LrK",
        "type": "Microsoft.Logic/workflows",
        "location": "westus",
        "tags": {}
      }
    },
    {
      "RequestUri": "https://management.azure.com/subscriptions/00000000-0000-0000-0000-000000000000/providers/Microsoft.Logic/workflows?api-version=2019-05-01",
      "RequestMethod": "GET",
      "RequestHeaders": {
        "Accept": "application/json",
        "Accept-Encoding": "gzip",
        "Authorization": "Sanitized",
        "User-Agent": "azsdk-go-armlogic/v1.1.1 (go1.19; Windows_NT)"
      },
      "RequestBody": null,
      "StatusCode": 200,
      "ResponseHeaders": {
        "Cache-Control": "no-cache",
        "Content-Encoding": "gzip",
        "Content-Type": "application/json; charset=utf-8",
        "Date": "Wed, 10 May 2023 03:04:22 GMT",
        "Expires": "-1",
        "Pragma": "no-cache",
        "Strict-Transport-Security": "max-age=31536000; includeSubDomains",
        "Transfer-Encoding": "chunked",
        "Vary": [
          "Accept-Encoding",
          "Accept-Encoding"
        ],
        "X-Content-Type-Options": "nosniff",
        "x-ms-correlation-request-id": "00000000-0000-0000-0000-000000000000",
        "x-ms-ratelimit-remaining-subscription-resource-requests": "19999",
        "x-ms-request-id": "westus:00000000-0000-0000-0000-000000000000",
        "x-ms-routing-request-id": "SOUTHEASTASIA:20230510T030423Z:00000000-0000-0000-0000-000000000000"
      },
      "ResponseBody": {
        "value": [
          {
            "properties": {
              "provisioningState": "Succeeded",
              "createdTime": "2023-05-10T03:04:21.3349933Z",
              "changedTime": "2023-05-10T03:04:21.3220893Z",
              "state": "Enabled",
              "version": "08585179190242126358",
              "accessEndpoint": "https://prod-115.westus.logic.azure.com:443/workflows/e62c7b3559564b3b9e893e33a2683af9",
              "integrationAccount": {
                "name": "integratgsmLxJ",
                "id": "/subscriptions/00000000-0000-0000-0000-000000000000/resourceGroups/Sanitized/providers/Microsoft.Logic/integrationAccounts/integratgsmLxJ",
                "type": "Microsoft.Logic/integrationAccounts"
              },
              "definition": {
                "$schema": "https://schema.management.azure.com/providers/Microsoft.Logic/schemas/2016-06-01/workflowdefinition.json#",
                "contentVersion": "1.0.0.0",
                "parameters": {
                  "$connections": {
                    "defaultValue": {},
                    "type": "Object"
                  }
                },
                "triggers": {
                  "manual": {
                    "type": "Request",
                    "kind": "Http",
                    "inputs": {
                      "schema": {}
                    }
                  }
                },
                "actions": {
                  "Find_pet_by_ID": {
                    "runAfter": {},
                    "type": "ApiConnection",
                    "inputs": {
                      "host": {
                        "connection": {
                          "name": "@parameters(\u0027$connections\u0027)[\u0027test-custom-connector\u0027][\u0027connectionId\u0027]"
                        }
                      },
                      "method": "get",
                      "path": "/pet/@{encodeURIComponent(\u00271\u0027)}"
                    }
                  }
                },
                "outputs": {}
              },
              "parameters": {},
              "endpointsConfiguration": {
                "workflow": {
                  "outgoingIpAddresses": [
                    {
                      "address": "52.160.92.112"
                    },
                    {
                      "address": "40.118.244.241"
                    },
                    {
                      "address": "40.118.241.243"
                    },
                    {
                      "address": "157.56.162.53"
                    },
                    {
                      "address": "157.56.167.147"
                    },
                    {
                      "address": "104.42.49.145"
                    },
                    {
                      "address": "40.83.164.80"
                    },
                    {
                      "address": "104.42.38.32"
                    },
                    {
                      "address": "13.86.223.0"
                    },
                    {
                      "address": "13.86.223.1"
                    },
                    {
                      "address": "13.86.223.2"
                    },
                    {
                      "address": "13.86.223.3"
                    },
                    {
                      "address": "13.86.223.4"
                    },
                    {
                      "address": "13.86.223.5"
                    },
                    {
                      "address": "104.40.34.169"
                    },
                    {
                      "address": "104.40.32.148"
                    },
                    {
                      "address": "52.160.70.221"
                    },
                    {
                      "address": "52.160.70.105"
                    },
                    {
                      "address": "13.91.81.221"
                    },
                    {
                      "address": "13.64.231.196"
                    },
                    {
                      "address": "13.87.204.182"
                    },
                    {
                      "address": "40.78.65.193"
                    },
                    {
                      "address": "13.87.207.39"
                    },
                    {
                      "address": "104.42.44.28"
                    },
                    {
                      "address": "40.83.134.97"
                    },
                    {
                      "address": "40.78.65.112"
                    },
                    {
                      "address": "168.62.9.74"
                    },
                    {
                      "address": "168.62.28.191"
                    }
                  ],
                  "accessEndpointIpAddresses": [
                    {
                      "address": "52.160.90.237"
                    },
                    {
                      "address": "138.91.188.137"
                    },
                    {
                      "address": "13.91.252.184"
                    },
                    {
                      "address": "157.56.160.212"
                    },
                    {
                      "address": "104.40.34.112"
                    },
                    {
                      "address": "52.160.68.27"
                    },
                    {
                      "address": "13.88.168.158"
                    },
                    {
                      "address": "104.42.40.164"
                    },
                    {
                      "address": "13.87.207.79"
                    },
                    {
                      "address": "13.87.204.210"
                    },
                    {
                      "address": "168.62.9.100"
                    }
                  ]
                },
                "connector": {
                  "outgoingIpAddresses": [
                    {
                      "address": "13.93.148.62"
                    },
                    {
                      "address": "104.42.122.49"
                    },
                    {
                      "address": "40.112.195.87"
                    },
                    {
                      "address": "13.86.223.32/27"
                    },
                    {
                      "address": "40.112.243.160/28"
                    },
                    {
                      "address": "20.59.77.0/27"
                    },
                    {
                      "address": "20.66.6.112/28"
                    }
                  ]
                }
              }
            },
            "id": "/subscriptions/00000000-0000-0000-0000-000000000000/resourceGroups/Sanitized/providers/Microsoft.Logic/workflows/workflowaS2LrK",
            "name": "workflowaS2LrK",
            "type": "Microsoft.Logic/workflows",
            "location": "westus",
            "tags": {}
          }
        ]
      }
    },
    {
      "RequestUri": "https://management.azure.com/subscriptions/00000000-0000-0000-0000-000000000000/resourceGroups/Sanitized/providers/Microsoft.Logic/workflows?api-version=2019-05-01",
      "RequestMethod": "GET",
      "RequestHeaders": {
        "Accept": "application/json",
        "Accept-Encoding": "gzip",
        "Authorization": "Sanitized",
        "User-Agent": "azsdk-go-armlogic/v1.1.1 (go1.19; Windows_NT)"
      },
      "RequestBody": null,
      "StatusCode": 200,
      "ResponseHeaders": {
        "Cache-Control": "no-cache",
        "Content-Encoding": "gzip",
        "Content-Type": "application/json; charset=utf-8",
        "Date": "Wed, 10 May 2023 03:04:23 GMT",
        "Expires": "-1",
        "Pragma": "no-cache",
        "Strict-Transport-Security": "max-age=31536000; includeSubDomains",
        "Transfer-Encoding": "chunked",
        "Vary": [
          "Accept-Encoding",
          "Accept-Encoding"
        ],
        "X-Content-Type-Options": "nosniff",
        "x-ms-correlation-request-id": "00000000-0000-0000-0000-000000000000",
        "x-ms-ratelimit-remaining-subscription-resource-requests": "19998",
        "x-ms-request-id": "westus:00000000-0000-0000-0000-000000000000",
        "x-ms-routing-request-id": "SOUTHEASTASIA:20230510T030423Z:00000000-0000-0000-0000-000000000000"
      },
      "ResponseBody": {
        "value": [
          {
            "properties": {
              "provisioningState": "Succeeded",
              "createdTime": "2023-05-10T03:04:21.3349933Z",
              "changedTime": "2023-05-10T03:04:21.3220893Z",
              "state": "Enabled",
              "version": "08585179190242126358",
              "accessEndpoint": "https://prod-115.westus.logic.azure.com:443/workflows/e62c7b3559564b3b9e893e33a2683af9",
              "integrationAccount": {
                "name": "integratgsmLxJ",
                "id": "/subscriptions/00000000-0000-0000-0000-000000000000/resourceGroups/Sanitized/providers/Microsoft.Logic/integrationAccounts/integratgsmLxJ",
                "type": "Microsoft.Logic/integrationAccounts"
              },
              "definition": {
                "$schema": "https://schema.management.azure.com/providers/Microsoft.Logic/schemas/2016-06-01/workflowdefinition.json#",
                "contentVersion": "1.0.0.0",
                "parameters": {
                  "$connections": {
                    "defaultValue": {},
                    "type": "Object"
                  }
                },
                "triggers": {
                  "manual": {
                    "type": "Request",
                    "kind": "Http",
                    "inputs": {
                      "schema": {}
                    }
                  }
                },
                "actions": {
                  "Find_pet_by_ID": {
                    "runAfter": {},
                    "type": "ApiConnection",
                    "inputs": {
                      "host": {
                        "connection": {
                          "name": "@parameters(\u0027$connections\u0027)[\u0027test-custom-connector\u0027][\u0027connectionId\u0027]"
                        }
                      },
                      "method": "get",
                      "path": "/pet/@{encodeURIComponent(\u00271\u0027)}"
                    }
                  }
                },
                "outputs": {}
              },
              "parameters": {},
              "endpointsConfiguration": {
                "workflow": {
                  "outgoingIpAddresses": [
                    {
                      "address": "52.160.92.112"
                    },
                    {
                      "address": "40.118.244.241"
                    },
                    {
                      "address": "40.118.241.243"
                    },
                    {
                      "address": "157.56.162.53"
                    },
                    {
                      "address": "157.56.167.147"
                    },
                    {
                      "address": "104.42.49.145"
                    },
                    {
                      "address": "40.83.164.80"
                    },
                    {
                      "address": "104.42.38.32"
                    },
                    {
                      "address": "13.86.223.0"
                    },
                    {
                      "address": "13.86.223.1"
                    },
                    {
                      "address": "13.86.223.2"
                    },
                    {
                      "address": "13.86.223.3"
                    },
                    {
                      "address": "13.86.223.4"
                    },
                    {
                      "address": "13.86.223.5"
                    },
                    {
                      "address": "104.40.34.169"
                    },
                    {
                      "address": "104.40.32.148"
                    },
                    {
                      "address": "52.160.70.221"
                    },
                    {
                      "address": "52.160.70.105"
                    },
                    {
                      "address": "13.91.81.221"
                    },
                    {
                      "address": "13.64.231.196"
                    },
                    {
                      "address": "13.87.204.182"
                    },
                    {
                      "address": "40.78.65.193"
                    },
                    {
                      "address": "13.87.207.39"
                    },
                    {
                      "address": "104.42.44.28"
                    },
                    {
                      "address": "40.83.134.97"
                    },
                    {
                      "address": "40.78.65.112"
                    },
                    {
                      "address": "168.62.9.74"
                    },
                    {
                      "address": "168.62.28.191"
                    }
                  ],
                  "accessEndpointIpAddresses": [
                    {
                      "address": "52.160.90.237"
                    },
                    {
                      "address": "138.91.188.137"
                    },
                    {
                      "address": "13.91.252.184"
                    },
                    {
                      "address": "157.56.160.212"
                    },
                    {
                      "address": "104.40.34.112"
                    },
                    {
                      "address": "52.160.68.27"
                    },
                    {
                      "address": "13.88.168.158"
                    },
                    {
                      "address": "104.42.40.164"
                    },
                    {
                      "address": "13.87.207.79"
                    },
                    {
                      "address": "13.87.204.210"
                    },
                    {
                      "address": "168.62.9.100"
                    }
                  ]
                },
                "connector": {
                  "outgoingIpAddresses": [
                    {
                      "address": "13.93.148.62"
                    },
                    {
                      "address": "104.42.122.49"
                    },
                    {
                      "address": "40.112.195.87"
                    },
                    {
                      "address": "13.86.223.32/27"
                    },
                    {
                      "address": "40.112.243.160/28"
                    },
                    {
                      "address": "20.59.77.0/27"
                    },
                    {
                      "address": "20.66.6.112/28"
                    }
                  ]
                }
              }
            },
            "id": "/subscriptions/00000000-0000-0000-0000-000000000000/resourceGroups/Sanitized/providers/Microsoft.Logic/workflows/workflowaS2LrK",
            "name": "workflowaS2LrK",
            "type": "Microsoft.Logic/workflows",
            "location": "westus",
            "tags": {}
          }
        ]
      }
    },
    {
      "RequestUri": "https://management.azure.com/subscriptions/00000000-0000-0000-0000-000000000000/resourceGroups/Sanitized/providers/Microsoft.Logic/workflows/workflowaS2LrK?api-version=2019-05-01",
      "RequestMethod": "GET",
      "RequestHeaders": {
        "Accept": "application/json",
        "Accept-Encoding": "gzip",
        "Authorization": "Sanitized",
        "User-Agent": "azsdk-go-armlogic/v1.1.1 (go1.19; Windows_NT)"
      },
      "RequestBody": null,
      "StatusCode": 200,
      "ResponseHeaders": {
        "Cache-Control": "no-cache",
        "Content-Encoding": "gzip",
        "Content-Type": "application/json; charset=utf-8",
        "Date": "Wed, 10 May 2023 03:04:23 GMT",
        "Expires": "-1",
        "Pragma": "no-cache",
        "Strict-Transport-Security": "max-age=31536000; includeSubDomains",
        "Transfer-Encoding": "chunked",
        "Vary": [
          "Accept-Encoding",
          "Accept-Encoding"
        ],
        "X-Content-Type-Options": "nosniff",
        "x-ms-correlation-request-id": "00000000-0000-0000-0000-000000000000",
        "x-ms-ratelimit-remaining-subscription-resource-requests": "19997",
        "x-ms-request-id": "westus:00000000-0000-0000-0000-000000000000",
        "x-ms-routing-request-id": "SOUTHEASTASIA:20230510T030424Z:00000000-0000-0000-0000-000000000000"
      },
      "ResponseBody": {
        "properties": {
          "provisioningState": "Succeeded",
          "createdTime": "2023-05-10T03:04:21.3349933Z",
          "changedTime": "2023-05-10T03:04:21.3220893Z",
          "state": "Enabled",
          "version": "08585179190242126358",
          "accessEndpoint": "https://prod-115.westus.logic.azure.com:443/workflows/e62c7b3559564b3b9e893e33a2683af9",
          "integrationAccount": {
            "name": "integratgsmLxJ",
            "id": "/subscriptions/00000000-0000-0000-0000-000000000000/resourceGroups/Sanitized/providers/Microsoft.Logic/integrationAccounts/integratgsmLxJ",
            "type": "Microsoft.Logic/integrationAccounts"
          },
          "definition": {
            "$schema": "https://schema.management.azure.com/providers/Microsoft.Logic/schemas/2016-06-01/workflowdefinition.json#",
            "contentVersion": "1.0.0.0",
            "parameters": {
              "$connections": {
                "defaultValue": {},
                "type": "Object"
              }
            },
            "triggers": {
              "manual": {
                "type": "Request",
                "kind": "Http",
                "inputs": {
                  "schema": {}
                }
              }
            },
            "actions": {
              "Find_pet_by_ID": {
                "runAfter": {},
                "type": "ApiConnection",
                "inputs": {
                  "host": {
                    "connection": {
                      "name": "@parameters(\u0027$connections\u0027)[\u0027test-custom-connector\u0027][\u0027connectionId\u0027]"
                    }
                  },
                  "method": "get",
                  "path": "/pet/@{encodeURIComponent(\u00271\u0027)}"
                }
              }
            },
            "outputs": {}
          },
          "parameters": {},
          "endpointsConfiguration": {
            "workflow": {
              "outgoingIpAddresses": [
                {
                  "address": "52.160.92.112"
                },
                {
                  "address": "40.118.244.241"
                },
                {
                  "address": "40.118.241.243"
                },
                {
                  "address": "157.56.162.53"
                },
                {
                  "address": "157.56.167.147"
                },
                {
                  "address": "104.42.49.145"
                },
                {
                  "address": "40.83.164.80"
                },
                {
                  "address": "104.42.38.32"
                },
                {
                  "address": "13.86.223.0"
                },
                {
                  "address": "13.86.223.1"
                },
                {
                  "address": "13.86.223.2"
                },
                {
                  "address": "13.86.223.3"
                },
                {
                  "address": "13.86.223.4"
                },
                {
                  "address": "13.86.223.5"
                },
                {
                  "address": "104.40.34.169"
                },
                {
                  "address": "104.40.32.148"
                },
                {
                  "address": "52.160.70.221"
                },
                {
                  "address": "52.160.70.105"
                },
                {
                  "address": "13.91.81.221"
                },
                {
                  "address": "13.64.231.196"
                },
                {
                  "address": "13.87.204.182"
                },
                {
                  "address": "40.78.65.193"
                },
                {
                  "address": "13.87.207.39"
                },
                {
                  "address": "104.42.44.28"
                },
                {
                  "address": "40.83.134.97"
                },
                {
                  "address": "40.78.65.112"
                },
                {
                  "address": "168.62.9.74"
                },
                {
                  "address": "168.62.28.191"
                }
              ],
              "accessEndpointIpAddresses": [
                {
                  "address": "52.160.90.237"
                },
                {
                  "address": "138.91.188.137"
                },
                {
                  "address": "13.91.252.184"
                },
                {
                  "address": "157.56.160.212"
                },
                {
                  "address": "104.40.34.112"
                },
                {
                  "address": "52.160.68.27"
                },
                {
                  "address": "13.88.168.158"
                },
                {
                  "address": "104.42.40.164"
                },
                {
                  "address": "13.87.207.79"
                },
                {
                  "address": "13.87.204.210"
                },
                {
                  "address": "168.62.9.100"
                }
              ]
            },
            "connector": {
              "outgoingIpAddresses": [
                {
                  "address": "13.93.148.62"
                },
                {
                  "address": "104.42.122.49"
                },
                {
                  "address": "40.112.195.87"
                },
                {
                  "address": "13.86.223.32/27"
                },
                {
                  "address": "40.112.243.160/28"
                },
                {
                  "address": "20.59.77.0/27"
                },
                {
                  "address": "20.66.6.112/28"
                }
              ]
            }
          }
        },
        "id": "/subscriptions/00000000-0000-0000-0000-000000000000/resourceGroups/Sanitized/providers/Microsoft.Logic/workflows/workflowaS2LrK",
        "name": "workflowaS2LrK",
        "type": "Microsoft.Logic/workflows",
        "location": "westus",
        "tags": {}
      }
    },
    {
      "RequestUri": "https://management.azure.com/subscriptions/00000000-0000-0000-0000-000000000000/resourceGroups/Sanitized/providers/Microsoft.Logic/workflows/workflowaS2LrK/disable?api-version=2019-05-01",
      "RequestMethod": "POST",
      "RequestHeaders": {
        "Accept": "application/json",
        "Accept-Encoding": "gzip",
        "Authorization": "Sanitized",
        "Content-Length": "0",
        "User-Agent": "azsdk-go-armlogic/v1.1.1 (go1.19; Windows_NT)"
      },
      "RequestBody": null,
      "StatusCode": 200,
      "ResponseHeaders": {
        "Cache-Control": "no-cache",
        "Content-Length": "0",
        "Date": "Wed, 10 May 2023 03:04:24 GMT",
        "Expires": "-1",
        "Pragma": "no-cache",
        "Strict-Transport-Security": "max-age=31536000; includeSubDomains",
        "X-Content-Type-Options": "nosniff",
        "x-ms-correlation-request-id": "00000000-0000-0000-0000-000000000000",
        "x-ms-ratelimit-remaining-subscription-writes": "1192",
        "x-ms-request-id": "westus:00000000-0000-0000-0000-000000000000",
        "x-ms-routing-request-id": "SOUTHEASTASIA:20230510T030424Z:00000000-0000-0000-0000-000000000000"
      },
      "ResponseBody": null
    },
    {
      "RequestUri": "https://management.azure.com/subscriptions/00000000-0000-0000-0000-000000000000/resourceGroups/Sanitized/providers/Microsoft.Logic/workflows/workflowaS2LrK/enable?api-version=2019-05-01",
      "RequestMethod": "POST",
      "RequestHeaders": {
        "Accept": "application/json",
        "Accept-Encoding": "gzip",
        "Authorization": "Sanitized",
        "Content-Length": "0",
        "User-Agent": "azsdk-go-armlogic/v1.1.1 (go1.19; Windows_NT)"
      },
      "RequestBody": null,
      "StatusCode": 200,
      "ResponseHeaders": {
        "Cache-Control": "no-cache",
        "Content-Length": "0",
        "Date": "Wed, 10 May 2023 03:04:25 GMT",
        "Expires": "-1",
        "Pragma": "no-cache",
        "Strict-Transport-Security": "max-age=31536000; includeSubDomains",
        "X-Content-Type-Options": "nosniff",
        "x-ms-correlation-request-id": "00000000-0000-0000-0000-000000000000",
        "x-ms-ratelimit-remaining-subscription-writes": "1191",
        "x-ms-request-id": "westus:00000000-0000-0000-0000-000000000000",
        "x-ms-routing-request-id": "SOUTHEASTASIA:20230510T030425Z:00000000-0000-0000-0000-000000000000"
      },
      "ResponseBody": null
    },
    {
      "RequestUri": "https://management.azure.com/subscriptions/00000000-0000-0000-0000-000000000000/resourceGroups/Sanitized/providers/Microsoft.Logic/workflows/workflowaS2LrK/listSwagger?api-version=2019-05-01",
      "RequestMethod": "POST",
      "RequestHeaders": {
        "Accept": "application/json",
        "Accept-Encoding": "gzip",
        "Authorization": "Sanitized",
        "Content-Length": "0",
        "User-Agent": "azsdk-go-armlogic/v1.1.1 (go1.19; Windows_NT)"
      },
      "RequestBody": null,
      "StatusCode": 200,
      "ResponseHeaders": {
        "Cache-Control": "no-cache",
        "Content-Encoding": "gzip",
        "Content-Type": "application/json; charset=utf-8",
        "Date": "Wed, 10 May 2023 03:04:25 GMT",
        "Expires": "-1",
        "Pragma": "no-cache",
        "Strict-Transport-Security": "max-age=31536000; includeSubDomains",
        "Transfer-Encoding": "chunked",
        "Vary": [
          "Accept-Encoding",
          "Accept-Encoding"
        ],
        "X-Content-Type-Options": "nosniff",
        "x-ms-correlation-request-id": "00000000-0000-0000-0000-000000000000",
        "x-ms-ratelimit-remaining-subscription-writes": "1190",
        "x-ms-request-id": "westus:00000000-0000-0000-0000-000000000000",
        "x-ms-routing-request-id": "SOUTHEASTASIA:20230510T030426Z:00000000-0000-0000-0000-000000000000"
      },
      "ResponseBody": {
        "swagger": "2.0",
        "info": {
          "version": "1.0.0.0",
          "title": "workflowaS2LrK",
          "description": "Azure Logic App."
        },
        "host": "prod-115.westus.logic.azure.com",
        "basePath": "/workflows/e62c7b3559564b3b9e893e33a2683af9/triggers",
        "schemes": [
          "https"
        ],
        "consumes": [
          "application/json"
        ],
        "produces": [
          "application/json"
        ],
        "paths": {
          "/manual/paths/invoke": {
            "post": {
              "description": "Trigger a run of the logic app.",
              "operationId": "manual-invoke",
              "parameters": [
                {
                  "name": "api-version",
                  "in": "query",
                  "description": "The service API version.",
                  "required": true,
                  "type": "string"
                },
                {
                  "name": "sp",
                  "in": "query",
                  "description": "The permissions; generally \u0027read\u0027 or \u0027write\u0027.",
                  "required": true,
                  "type": "string"
                },
                {
                  "name": "sv",
                  "in": "query",
                  "description": "The version number of the query parameters.",
                  "required": true,
                  "type": "string"
                },
                {
                  "name": "sig",
                  "in": "query",
                  "description": "The SHA 256 hash of the entire request URI with an internal key.",
                  "required": true,
                  "type": "string"
                },
                {
                  "name": "body",
                  "in": "body",
                  "description": "The request body.",
                  "required": false,
                  "schema": {
                    "$ref": "#/definitions/request-manual"
                  }
                }
              ],
              "responses": {
                "default": {
                  "description": "The Logic App Response.",
                  "schema": {
                    "type": "object"
                  }
                }
              },
              "deprecated": false
            }
          }
        },
        "definitions": {
          "request-manual": {}
        }
      }
    },
    {
      "RequestUri": "https://management.azure.com/subscriptions/00000000-0000-0000-0000-000000000000/resourceGroups/Sanitized/providers/Microsoft.Logic/locations/westus/workflows/workflowaS2LrK/validate?api-version=2019-05-01",
      "RequestMethod": "POST",
      "RequestHeaders": {
        "Accept": "application/json",
        "Accept-Encoding": "gzip",
        "Authorization": "Sanitized",
        "Content-Length": "435",
        "Content-Type": "application/json",
        "User-Agent": "azsdk-go-armlogic/v1.1.1 (go1.19; Windows_NT)"
      },
      "RequestBody": {
        "location": "westus",
        "properties": {
          "definition": {
            "$schema": "https://schema.management.azure.com/providers/Microsoft.Logic/schemas/2016-06-01/workflowdefinition.json#",
            "actions": {},
            "contentVersion": "1.0.0.0",
            "outputs": {},
            "parameters": {},
            "triggers": {}
          },
          "integrationAccount": {
            "id": "/subscriptions/00000000-0000-0000-0000-000000000000/resourceGroups/Sanitized/providers/Microsoft.Logic/integrationAccounts/integratgsmLxJ"
          }
        },
        "tags": {}
      },
      "StatusCode": 200,
      "ResponseHeaders": {
        "Cache-Control": "no-cache",
        "Content-Length": "0",
        "Date": "Wed, 10 May 2023 03:04:26 GMT",
        "Expires": "-1",
        "Pragma": "no-cache",
        "Strict-Transport-Security": "max-age=31536000; includeSubDomains",
        "X-Content-Type-Options": "nosniff",
        "x-ms-correlation-request-id": "00000000-0000-0000-0000-000000000000",
        "x-ms-ratelimit-remaining-subscription-writes": "1189",
        "x-ms-request-id": "westus:00000000-0000-0000-0000-000000000000",
        "x-ms-routing-request-id": "SOUTHEASTASIA:20230510T030426Z:00000000-0000-0000-0000-000000000000"
      },
      "ResponseBody": null
    },
    {
      "RequestUri": "https://management.azure.com/subscriptions/00000000-0000-0000-0000-000000000000/resourceGroups/Sanitized/providers/Microsoft.Logic/workflows/workflowaS2LrK/validate?api-version=2019-05-01",
      "RequestMethod": "POST",
      "RequestHeaders": {
        "Accept": "application/json",
        "Accept-Encoding": "gzip",
        "Authorization": "Sanitized",
        "Content-Length": "435",
        "Content-Type": "application/json",
        "User-Agent": "azsdk-go-armlogic/v1.1.1 (go1.19; Windows_NT)"
      },
      "RequestBody": {
        "location": "westus",
        "properties": {
          "definition": {
            "$schema": "https://schema.management.azure.com/providers/Microsoft.Logic/schemas/2016-06-01/workflowdefinition.json#",
            "actions": {},
            "contentVersion": "1.0.0.0",
            "outputs": {},
            "parameters": {},
            "triggers": {}
          },
          "integrationAccount": {
            "id": "/subscriptions/00000000-0000-0000-0000-000000000000/resourceGroups/Sanitized/providers/Microsoft.Logic/integrationAccounts/integratgsmLxJ"
          }
        },
        "tags": {}
      },
      "StatusCode": 200,
      "ResponseHeaders": {
        "Cache-Control": "no-cache",
        "Content-Length": "0",
        "Date": "Wed, 10 May 2023 03:04:26 GMT",
        "Expires": "-1",
        "Pragma": "no-cache",
        "Strict-Transport-Security": "max-age=31536000; includeSubDomains",
        "X-Content-Type-Options": "nosniff",
        "x-ms-correlation-request-id": "00000000-0000-0000-0000-000000000000",
        "x-ms-ratelimit-remaining-subscription-writes": "1188",
        "x-ms-request-id": "westus:00000000-0000-0000-0000-000000000000",
        "x-ms-routing-request-id": "SOUTHEASTASIA:20230510T030427Z:00000000-0000-0000-0000-000000000000"
      },
      "ResponseBody": null
    },
    {
      "RequestUri": "https://management.azure.com/subscriptions/00000000-0000-0000-0000-000000000000/resourceGroups/Sanitized/providers/Microsoft.Logic/workflows/workflowaS2LrK/regenerateAccessKey?api-version=2019-05-01",
      "RequestMethod": "POST",
      "RequestHeaders": {
        "Accept": "application/json",
        "Accept-Encoding": "gzip",
        "Authorization": "Sanitized",
        "Content-Length": "21",
        "Content-Type": "application/json",
        "User-Agent": "azsdk-go-armlogic/v1.1.1 (go1.19; Windows_NT)"
      },
      "RequestBody": {
        "keyType": "Primary"
      },
      "StatusCode": 200,
      "ResponseHeaders": {
        "Cache-Control": "no-cache",
        "Content-Length": "0",
        "Date": "Wed, 10 May 2023 03:04:27 GMT",
        "Expires": "-1",
        "Pragma": "no-cache",
        "Strict-Transport-Security": "max-age=31536000; includeSubDomains",
        "X-Content-Type-Options": "nosniff",
        "x-ms-correlation-request-id": "00000000-0000-0000-0000-000000000000",
        "x-ms-ratelimit-remaining-subscription-writes": "1187",
        "x-ms-request-id": "westus:00000000-0000-0000-0000-000000000000",
        "x-ms-routing-request-id": "SOUTHEASTASIA:20230510T030427Z:00000000-0000-0000-0000-000000000000"
      },
      "ResponseBody": null
    },
    {
      "RequestUri": "https://management.azure.com/subscriptions/00000000-0000-0000-0000-000000000000/resourceGroups/Sanitized/providers/Microsoft.Logic/workflows/workflowaS2LrK/listCallbackUrl?api-version=2019-05-01",
      "RequestMethod": "POST",
      "RequestHeaders": {
        "Accept": "application/json",
        "Accept-Encoding": "gzip",
        "Authorization": "Sanitized",
        "Content-Length": "21",
        "Content-Type": "application/json",
        "User-Agent": "azsdk-go-armlogic/v1.1.1 (go1.19; Windows_NT)"
      },
      "RequestBody": {
        "keyType": "Primary"
      },
      "StatusCode": 200,
      "ResponseHeaders": {
        "Cache-Control": "no-cache",
        "Content-Encoding": "gzip",
        "Content-Type": "application/json; charset=utf-8",
        "Date": "Wed, 10 May 2023 03:04:27 GMT",
        "Expires": "-1",
        "Pragma": "no-cache",
        "Strict-Transport-Security": "max-age=31536000; includeSubDomains",
        "Transfer-Encoding": "chunked",
        "Vary": [
          "Accept-Encoding",
          "Accept-Encoding"
        ],
        "X-Content-Type-Options": "nosniff",
        "x-ms-correlation-request-id": "00000000-0000-0000-0000-000000000000",
        "x-ms-ratelimit-remaining-subscription-writes": "1186",
        "x-ms-request-id": "westus:00000000-0000-0000-0000-000000000000",
        "x-ms-routing-request-id": "SOUTHEASTASIA:20230510T030428Z:00000000-0000-0000-0000-000000000000"
      },
      "ResponseBody": {
        "value": "https://prod-115.westus.logic.azure.com:443/workflows/e62c7b3559564b3b9e893e33a2683af9?api-version=2019-05-01\u0026sp=%2F%2F%2A\u0026sv=1.0\u0026sig=tyWeLdzK72Y141iulUazdfKYN5Djpz36ATCIH6fEhf8",
        "basePath": "https://prod-115.westus.logic.azure.com/workflows/e62c7b3559564b3b9e893e33a2683af9",
        "queries": {
          "api-version": "2019-05-01",
          "sp": "//*",
          "sv": "1.0",
          "sig": "tyWeLdzK72Y141iulUazdfKYN5Djpz36ATCIH6fEhf8"
        }
      }
    },
    {
      "RequestUri": "https://management.azure.com/subscriptions/00000000-0000-0000-0000-000000000000/resourceGroups/Sanitized/providers/Microsoft.Logic/workflows/workflowaS2LrK?api-version=2019-05-01",
      "RequestMethod": "DELETE",
      "RequestHeaders": {
        "Accept": "application/json",
        "Accept-Encoding": "gzip",
        "Authorization": "Sanitized",
        "User-Agent": "azsdk-go-armlogic/v1.1.1 (go1.19; Windows_NT)"
      },
      "RequestBody": null,
      "StatusCode": 200,
      "ResponseHeaders": {
        "Cache-Control": "no-cache",
        "Content-Length": "0",
        "Date": "Wed, 10 May 2023 03:04:32 GMT",
        "Expires": "-1",
        "Pragma": "no-cache",
        "Strict-Transport-Security": "max-age=31536000; includeSubDomains",
        "X-Content-Type-Options": "nosniff",
        "x-ms-correlation-request-id": "00000000-0000-0000-0000-000000000000",
        "x-ms-ratelimit-remaining-subscription-deletes": "14989",
        "x-ms-request-id": "westus:00000000-0000-0000-0000-000000000000",
        "x-ms-routing-request-id": "SOUTHEASTASIA:20230510T030433Z:00000000-0000-0000-0000-000000000000"
      },
      "ResponseBody": null
    },
    {
      "RequestUri": "https://management.azure.com/subscriptions/00000000-0000-0000-0000-000000000000/resourcegroups/Sanitized?api-version=2021-04-01",
      "RequestMethod": "DELETE",
      "RequestHeaders": {
        "Accept": "application/json",
        "Accept-Encoding": "gzip",
        "Authorization": "Sanitized",
        "User-Agent": "azsdk-go-armresources/v1.0.0 (go1.19; Windows_NT)"
      },
      "RequestBody": null,
      "StatusCode": 202,
      "ResponseHeaders": {
        "Cache-Control": "no-cache",
        "Content-Length": "0",
        "Date": "Wed, 10 May 2023 03:04:34 GMT",
        "Expires": "-1",
        "Location": "https://management.azure.com/subscriptions/00000000-0000-0000-0000-000000000000/operationresults/eyJqb2JJZCI6IlJFU09VUkNFR1JPVVBERUxFVElPTkpPQi1HTzoyRFNESzoyRFRFU1Q6MkQzNDUtV0VTVFVTIiwiam9iTG9jYXRpb24iOiJ3ZXN0dXMifQ?api-version=2021-04-01",
        "Pragma": "no-cache",
        "Retry-After": "15",
        "Strict-Transport-Security": "max-age=31536000; includeSubDomains",
        "X-Content-Type-Options": "nosniff",
        "x-ms-correlation-request-id": "00000000-0000-0000-0000-000000000000",
        "x-ms-ratelimit-remaining-subscription-deletes": "14988",
        "x-ms-request-id": "00000000-0000-0000-0000-000000000000",
        "x-ms-routing-request-id": "SOUTHEASTASIA:20230510T030434Z:00000000-0000-0000-0000-000000000000"
      },
      "ResponseBody": null
    }
  ],
  "Variables": {
    "randSeed": "1683687855",
    "recordingRandomSeed": "0"
  }
}
